[{"name":"Comcast","category_code":"games_video","number_of_employees":100000,"total_money_raised":"$725M","description":"One Comcast Center","address1":"1701 JFK Blvd","address2":"","zip_code":"19103","city":"Philadelphia","state_code":"PA","country_code":"USA","location":{"type":"Point","coordinates":[-75.1652518,39.9525762]}},{"name":"The Walt Disney Company","category_code":"games_video","number_of_employees":25000,"total_money_raised":"$0","description":null,"address1":"500 S. Buena Vista St.","address2":"","zip_code":"91521","city":"Burbank","state_code":"CA","country_code":"USA","location":{"type":"Point","coordinates":[-118.324987,34.156802]}},{"name":"Nintendo","category_code":"games_video","number_of_employees":5080,"total_money_raised":"$0","description":null,"address1":null,"address2":null,"zip_code":null,"city":null,"state_code":null,"country_code":"JPN","location":{"type":"Point","coordinates":[138.252924,36.204824]}},{"name":"Netflix","category_code":"games_video","number_of_employees":2000,"total_money_raised":"$230M","description":null,"address1":"100 Winchester Circle","address2":"","zip_code":"95032","city":"Los Gatos","state_code":"CA","country_code":"USA","location":{"type":"Point","coordinates":[-121.968687,37.25142]}},{"name":"Kabam","category_code":"games_video","number_of_employees":650,"total_money_raised":"$125M","description":"HQ","address1":"795 Folsom Street","address2":"Suite 600","zip_code":"94107","city":"San Francisco","state_code":"CA","country_code":"USA","location":{"type":"Point","coordinates":[-122.0785314,37.3944561]}},{"name":"Bigpoint","category_code":"games_video","number_of_employees":500,"total_money_raised":"\u20ac420M","description":"Bigpoint Headquarters","address1":"Drehbahn 47-48","address2":"","zip_code":"20354","city":"Hamburg","state_code":null,"country_code":"DEU","location":{"type":"Point","coordinates":[9.9762519,53.5973055]}},{"name":"CCP Games","category_code":"games_video","number_of_employees":360,"total_money_raised":"$36.3M","description":"CCP North America","address1":"2075 West Park Place BLVD.","address2":"Suite G","zip_code":"Stone Mountain","city":"Stone Mountain","state_code":"GA","country_code":"USA","location":{"type":"Point","coordinates":[-84.120458,33.817752]}},{"name":"FriendFinder Networks","category_code":"games_video","number_of_employees":350,"total_money_raised":"$551M","description":"","address1":"6800 Broken Sound Parkway","address2":"Suite 100","zip_code":"56100","city":"Boca Raton","state_code":"FL","country_code":"MYS","location":{"type":"Point","coordinates":[-80.1169895,26.4074809]}},{"name":"SPIL GAMES","category_code":"games_video","number_of_employees":300,"total_money_raised":"$0","description":"SPIL GAMES Headquarters","address1":"Arendstraat 23","address2":"","zip_code":"1223RE","city":"Hilversum","state_code":null,"country_code":"NLD","location":{"type":"Point","coordinates":[5.198824,52.220726]}},{"name":"Ustream","category_code":"games_video","number_of_employees":250,"total_money_raised":"$60.1M","description":"San Francisco Office","address1":"410 Townsend","address2":"Suite 400","zip_code":"94107","city":"San Francisco","state_code":"CA","country_code":"USA","location":{"type":"Point","coordinates":[-122.07948,37.392936]}},{"name":"Zango","category_code":"games_video","number_of_employees":225,"total_money_raised":"$40M","description":null,"address1":"3600 136th Place SE","address2":null,"zip_code":"98006","city":"Bellevue","state_code":"WA","country_code":"USA","location":{"type":"Point","coordinates":[-122.155668,47.579208]}},{"name":"Realtime Worlds","category_code":"games_video","number_of_employees":225,"total_money_raised":"$82.8M","description":null,"address1":"","address2":"","zip_code":"","city":"Dundee","state_code":null,"country_code":"GBR","location":{"type":"Point","coordinates":[-2.968111,56.461428]}},{"name":"Realtime Worlds","category_code":"games_video","number_of_employees":225,"total_money_raised":"$82.8M","description":"","address1":"","address2":"","zip_code":"","city":"Boulder","state_code":"CO","country_code":"USA","location":{"type":"Point","coordinates":[-105.276843,40.010492]}},{"name":"deltatre","category_code":"games_video","number_of_employees":225,"total_money_raised":"$0","description":"Headquarter","address1":"via millio 41","address2":"","zip_code":"10141","city":"Torino","state_code":null,"country_code":"ITA","location":{"type":"Point","coordinates":[7.649614,45.058576]}},{"name":"GameDuell","category_code":"games_video","number_of_employees":200,"total_money_raised":"$17.5M","description":"European Headquarters","address1":"Taubenstr. 24-25","address2":"","zip_code":"10117","city":"Berlin","state_code":null,"country_code":"DEU","location":{"type":"Point","coordinates":[13.3941489,52.5131826]}},{"name":"Turbine","category_code":"games_video","number_of_employees":200,"total_money_raised":"$76.6M","description":null,"address1":"60 Glacier Drive, Suite 4000","address2":"","zip_code":"","city":"Westwood","state_code":"MA","country_code":"USA","location":{"type":"Point","coordinates":[-71.185964,42.214483]}},{"name":"Turbine","category_code":"games_video","number_of_employees":200,"total_money_raised":"$76.6M","description":"","address1":"","address2":"","zip_code":"","city":"Redwood City","state_code":"CA","country_code":"USA","location":{"type":"Point","coordinates":[-122.223384,37.477652]}},{"name":"Unity Technologies","category_code":"games_video","number_of_employees":200,"total_money_raised":"$17.5M","description":"US Office","address1":"795 Folsom","address2":"","zip_code":"94107","city":"San Francisco","state_code":"CA","country_code":"USA","location":{"type":"Point","coordinates":[12.530107,55.6924605]}},{"name":"Turtle Entertainment","category_code":"games_video","number_of_employees":175,"total_money_raised":"$0","description":"Headquarters","address1":"Siegburger Str. 189","address2":"","zip_code":"50679","city":"Cologne","state_code":null,"country_code":"DEU","location":{"type":"Point","coordinates":[6.9764978,50.9272941]}},{"name":"hulu","category_code":"games_video","number_of_employees":153,"total_money_raised":"$100M","description":null,"address1":"12312 W. Olympic Blvd.","address2":null,"zip_code":"90064","city":"Los Angeles","state_code":"CA","country_code":"USA","location":{"type":"Point","coordinates":[-118.456806,34.031276]}},{"name":"Boonty","category_code":"games_video","number_of_employees":150,"total_money_raised":"$10M","description":null,"address1":"54 Franklin Street","address2":"3F","zip_code":"10013","city":"New York","state_code":"NY","country_code":"USA","location":{"type":"Point","coordinates":[-74.002662,40.717248]}},{"name":"ngmoco","category_code":"games_video","number_of_employees":150,"total_money_raised":"$44.8M","description":"Secret Factory","address1":"185 Berry Street","address2":"Suite 3000","zip_code":"94107","city":"San Francisco","state_code":"CA","country_code":"USA","location":{"type":"Point","coordinates":[-122.4015807,37.7705096]}},{"name":"i-Jet Media","category_code":"games_video","number_of_employees":150,"total_money_raised":"$0","description":"","address1":"440 N Wolfe Rd","address2":"","zip_code":"94085","city":"Sunnyvale","state_code":"CA","country_code":"USA","location":{"type":"Point","coordinates":[-122.012475,37.384239]}},{"name":"NaturalMotion","category_code":"games_video","number_of_employees":150,"total_money_raised":"$0","description":"San Francisco","address1":"143 2nd Street","address2":"Fifth Floor","zip_code":"94105","city":"San Francisco","state_code":"CA","country_code":"USA","location":{"type":"Point","coordinates":[-122.3989996,37.7875304]}},{"name":"Z2Live","category_code":"games_video","number_of_employees":130,"total_money_raised":"$6.5M","description":"Z2Live","address1":"1601 2nd Ave","address2":"Suite 800","zip_code":"98101","city":"Seattle","state_code":"WA","country_code":"USA","location":{"type":"Point","coordinates":[-122.3399782,47.6103008]}},{"name":"RGB Networks","category_code":"games_video","number_of_employees":125,"total_money_raised":"$52M","description":"HQ","address1":"390 West Java Drive","address2":"","zip_code":"94089","city":"Sunnyvale","state_code":"CA","country_code":"USA","location":{"type":"Point","coordinates":[-122.0216271,37.4123706]}},{"name":"Modern Feed","category_code":"games_video","number_of_employees":123,"total_money_raised":"$3M","description":null,"address1":"818 N. La Brea Ave.","address2":"","zip_code":"90038","city":"Los Angeles","state_code":"CA","country_code":"USA","location":{"type":"Point","coordinates":[-118.343791,34.085749]}},{"name":"Livestream","category_code":"games_video","number_of_employees":120,"total_money_raised":"$14.7M","description":"Livestream HQ","address1":"111 8th Avenue, #1509","address2":"","zip_code":"10011","city":"New York","state_code":"NY","country_code":"USA","location":{"type":"Point","coordinates":[-73.995625,40.726155]}},{"name":"Zynga","category_code":"games_video","number_of_employees":115,"total_money_raised":"$860M","description":"SF HQ","address1":"365 Vermont St.","address2":"","zip_code":"94103","city":"San Francisco","state_code":"CA","country_code":"USA","location":{"type":"Point","coordinates":[-122.404234,37.765158]}},{"name":"RockYou","category_code":"games_video","number_of_employees":106,"total_money_raised":"$136M","description":"","address1":"585 Broadway","address2":"Suite A","zip_code":"94063","city":"Redwood City","state_code":"CA","country_code":"USA","location":{"type":"Point","coordinates":[-122.206893,37.484619]}},{"name":"2 Minutes","category_code":"games_video","number_of_employees":105,"total_money_raised":"$1.66M","description":"","address1":"9 rue biscornet","address2":"","zip_code":"75012","city":"Paris","state_code":null,"country_code":"FRA","location":{"type":"Point","coordinates":[2.3698033,48.8502056]}},{"name":"iWin","category_code":"games_video","number_of_employees":103,"total_money_raised":"$0","description":"","address1":"45 Fremont Street","address2":"Suite 3100","zip_code":"94105","city":"San Francisco","state_code":"CA","country_code":"USA","location":{"type":"Point","coordinates":[-122.391061,37.781689]}},{"name":"hi5","category_code":"games_video","number_of_employees":100,"total_money_raised":"$52M","description":"","address1":"55 Second Street","address2":"Suite 400","zip_code":"94105","city":"San Francisco","state_code":"CA","country_code":"USA","location":{"type":"Point","coordinates":[-122.400558,37.788668]}},{"name":"mig33","category_code":"games_video","number_of_employees":100,"total_money_raised":"$32.4M","description":"mig33 Headquarters","address1":"111 North Bridge Road","address2":"Peninsula Plaza #26-01","zip_code":"179098","city":"Singapore","state_code":null,"country_code":"SGP","location":{"type":"Point","coordinates":[-122.343679,37.580304]}},{"name":"Social Gaming Network","category_code":"games_video","number_of_employees":100,"total_money_raised":"$17.1M","description":"HQ Los Angeles","address1":"9570 W. Pico Blvd 3rd Floor","address2":"","zip_code":"90035","city":"Los Angeles","state_code":"CA","country_code":"USA","location":{"type":"Point","coordinates":[-122.161523,37.446823]}},{"name":"Social Gaming Network","category_code":"games_video","number_of_employees":100,"total_money_raised":"$17.1M","description":"","address1":"9606 S. Santa Monica Blvd","address2":"2nd Floor","zip_code":"90210","city":"Beverly Hills","state_code":"CA","country_code":"USA","location":{"type":"Point","coordinates":[-118.4054182,34.0698494]}},{"name":"VBS TV","category_code":"games_video","number_of_employees":100,"total_money_raised":"$10M","description":"HeadQuarters","address1":"97 North Tenth Street","address2":"Suite 204","zip_code":"11211","city":"Brooklyn","state_code":"NY","country_code":"USA","location":{"type":"Point","coordinates":[-73.957968,40.720764]}},{"name":"ZillionTV","category_code":"games_video","number_of_employees":100,"total_money_raised":"$18.1M","description":"Corporate Office","address1":"1170 Kifer Road","address2":"","zip_code":"94086","city":"Sunnyvale","state_code":"CA","country_code":"USA","location":{"type":"Point","coordinates":[-121.9973546,37.3738725]}},{"name":"ZillionTV","category_code":"games_video","number_of_employees":100,"total_money_raised":"$18.1M","description":"","address1":"100 Wilshire Blvd.","address2":"Suite 750","zip_code":"90401","city":"Santa Monica","state_code":"CA","country_code":"USA","location":{"type":"Point","coordinates":[-118.500603,34.016838]}},{"name":"Exent","category_code":"games_video","number_of_employees":100,"total_money_raised":"$3M","description":"Sales & Marketing","address1":"632 W. 28th St.","address2":"8th Floor","zip_code":"10001","city":"New York","state_code":"NY","country_code":"USA","location":{"type":"Point","coordinates":[-74.005568,40.7523796]}},{"name":"Exent","category_code":"games_video","number_of_employees":100,"total_money_raised":"$3M","description":"Premium Services","address1":"685 Market Street","address2":"Suite 560","zip_code":"94105","city":"San Francisco","state_code":"CA","country_code":"USA","location":{"type":"Point","coordinates":[-122.402759,37.787646]}},{"name":"Origin Digital","category_code":"games_video","number_of_employees":80,"total_money_raised":"$0","description":"","address1":"1200 Harbor Boulevard","address2":"9th Floor","zip_code":"07086","city":"Weehawken","state_code":"NJ","country_code":"USA","location":{"type":"Point","coordinates":[-74.026033,40.761979]}},{"name":"[212]Media","category_code":"games_video","number_of_employees":75,"total_money_raised":"$0","description":"","address1":"72 Madison Avenue","address2":"","zip_code":"","city":"New York","state_code":"NY","country_code":"USA","location":{"type":"Point","coordinates":[-73.98618,40.743877]}},{"name":"YUPPTV","category_code":"games_video","number_of_employees":70,"total_money_raised":"$0","description":"OTT Video Solutions","address1":"710 Ashepoint Way","address2":"","zip_code":"30004","city":"Alpharetta","state_code":"GA","country_code":"USA","location":{"type":"Point","coordinates":[78.434422,17.415429]}},{"name":"Meteor Games","category_code":"games_video","number_of_employees":70,"total_money_raised":"$0","description":"","address1":"","address2":"","zip_code":"90210","city":"Beverly Hills","state_code":"CA","country_code":"USA","location":{"type":"Point","coordinates":[-118.378335,34.09316]}},{"name":"sevenload","category_code":"games_video","number_of_employees":67,"total_money_raised":"\u20ac25M","description":null,"address1":"Vogelsanger Str. 78","address2":"","zip_code":"50823","city":"Cologne","state_code":null,"country_code":"DEU","location":{"type":"Point","coordinates":[6.921546,50.945289]}},{"name":"Kewego","category_code":"games_video","number_of_employees":65,"total_money_raised":"$19.4M","description":"HQ","address1":"111, rue Cardinet","address2":"","zip_code":"75017","city":"Paris","state_code":null,"country_code":"FRA","location":{"type":"Point","coordinates":[2.213749,46.227638]}},{"name":"StreamTheWorld","category_code":"games_video","number_of_employees":65,"total_money_raised":"$0","description":"Headquarters","address1":"1440 Ste-Catherine W., Suite 1200","address2":"","zip_code":"H3G 1R8","city":"Montr\u00c3\u00a9al","state_code":null,"country_code":"CAN","location":{"type":"Point","coordinates":[-73.5767499,45.4961227]}},{"name":"StreamTheWorld","category_code":"games_video","number_of_employees":65,"total_money_raised":"$0","description":"Europe Headquarters","address1":"Rue Centrale 6","address2":"","zip_code":"1003","city":"Lausanne","state_code":null,"country_code":"CHE","location":{"type":"Point","coordinates":[6.6328274,46.5206291]}},{"name":"Geewa","category_code":"games_video","number_of_employees":60,"total_money_raised":"\u20ac1.5M","description":"World Headquarters","address1":"Sokolovska 84","address2":"","zip_code":"18600","city":"Prague 8","state_code":null,"country_code":"CZE","location":{"type":"Point","coordinates":[14.4505336,50.0938491]}},{"name":"SCVNGR","category_code":"games_video","number_of_employees":60,"total_money_raised":"$40.8M","description":"SCVNGR","address1":"One Congress","address2":"Suite 111","zip_code":"021114","city":"Boston","state_code":"MA","country_code":"USA","location":{"type":"Point","coordinates":[-71.0680027,42.3406534]}},{"name":"Curse","category_code":"games_video","number_of_employees":58,"total_money_raised":"$12M","description":"San Francisco","address1":"60 Broadway","address2":"","zip_code":"94111","city":"San Francisco","state_code":"CA","country_code":"USA","location":{"type":"Point","coordinates":[-122.399972,37.787092]}},{"name":"Animax Entertainment","category_code":"games_video","number_of_employees":55,"total_money_raised":"$0","description":null,"address1":"6627 Valjean Avenue","address2":"","zip_code":"91406","city":"Van Nuys","state_code":"CA","country_code":"USA","location":{"type":"Point","coordinates":[-118.486428,34.19099]}},{"name":"Illumina Digital","category_code":"games_video","number_of_employees":55,"total_money_raised":"$0","description":"8 Canham Mews","address1":"Canham Road","address2":"","zip_code":"W3 7SR","city":"London","state_code":null,"country_code":"GBR","location":{"type":"Point","coordinates":[-0.25628,51.503612]}},{"name":"MindSmack","category_code":"games_video","number_of_employees":54,"total_money_raised":"$0","description":"MindSmack HQ","address1":"311 West 43rd Street","address2":"Penthouse","zip_code":"10036","city":"New York","state_code":"NY","country_code":"USA","location":{"type":"Point","coordinates":[-73.989987,40.758492]}},{"name":"Crunchyroll","category_code":"games_video","number_of_employees":50,"total_money_raised":"$4.8M","description":"","address1":"","address2":"","zip_code":"94105","city":"San Francisco","state_code":"CA","country_code":"USA","location":{"type":"Point","coordinates":[-122.393229,37.781265]}},{"name":"OMGPOP","category_code":"games_video","number_of_employees":50,"total_money_raised":"$16.6M","description":"","address1":"SoHo","address2":"","zip_code":"","city":"New York","state_code":"NY","country_code":"USA","location":{"type":"Point","coordinates":[-74.001704,40.723384]}},{"name":"Cyloop","category_code":"games_video","number_of_employees":50,"total_money_raised":"$0","description":"World Headquarters","address1":"555 Washington Ave, suite 340","address2":"","zip_code":"33137","city":"Miami","state_code":"FL","country_code":"USA","location":{"type":"Point","coordinates":[-80.13183,25.787252]}},{"name":"Cyloop","category_code":"games_video","number_of_employees":50,"total_money_raised":"$0","description":"Madrid Office","address1":"Avda. de Bruselas 38-B 4","address2":"Alcobendas","zip_code":"28108","city":"Madrid","state_code":null,"country_code":"ESP","location":{"type":"Point","coordinates":[-3.6429907,40.5288449]}},{"name":"Cyloop","category_code":"games_video","number_of_employees":50,"total_money_raised":"$0","description":"CA Office","address1":"1960 East Grand Ave., suite 240","address2":"","zip_code":"90245","city":"El Segundo","state_code":"CA","country_code":"USA","location":{"type":"Point","coordinates":[-118.393719,33.918589]}},{"name":"iStreamPlanet","category_code":"games_video","number_of_employees":50,"total_money_raised":"$15M","description":"Headquarters","address1":"6630 West Arby Ave.","address2":"Suite 112","zip_code":"89118","city":"Las Vegas","state_code":"NV","country_code":"USA","location":{"type":"Point","coordinates":[-115.23671,36.059658]}},{"name":"38 Studios","category_code":"games_video","number_of_employees":49,"total_money_raised":"$0","description":"Headquarters","address1":"5 Clock Tower Place","address2":"Suite 140","zip_code":"01754","city":"Maynard","state_code":"MA","country_code":"USA","location":{"type":"Point","coordinates":[-71.455658,42.431652]}},{"name":"ModernMethod","category_code":"games_video","number_of_employees":47,"total_money_raised":"$0","description":"Miami Office","address1":"4500 Biscayne Blvd","address2":"Suite 306","zip_code":"33137","city":"Miami","state_code":"FL","country_code":"USA","location":{"type":"Point","coordinates":[-80.18874,25.817674]}},{"name":"Blip","category_code":"games_video","number_of_employees":47,"total_money_raised":"$27.3M","description":"Blip Studios","address1":"2501 Michigan Ave","address2":"","zip_code":"90404","city":"Santa Monica","state_code":"CA","country_code":"USA","location":{"type":"Point","coordinates":[-118.4682333,34.0272246]}},{"name":"Zattoo","category_code":"games_video","number_of_employees":45,"total_money_raised":"$10M","description":"Zattoo USA","address1":"1327 Jones Dr. Suite 106","address2":"","zip_code":"48105","city":"Ann Arbor","state_code":"MI","country_code":"USA","location":{"type":"Point","coordinates":[-83.734673,42.292649]}},{"name":"Major League Gaming","category_code":"games_video","number_of_employees":45,"total_money_raised":"$69M","description":"Corporate Headquarters","address1":"3 Park Avenue","address2":"32nd Floor","zip_code":"10016","city":"New York","state_code":"NY","country_code":"USA","location":{"type":"Point","coordinates":[-73.97593,40.752672]}},{"name":"Busca Corp","category_code":"games_video","number_of_employees":45,"total_money_raised":"$5M","description":"Busca Corp. USA","address1":"7590 Fay Ave. Suite 506","address2":"","zip_code":"92037","city":"La Jolla","state_code":"CA","country_code":"USA","location":{"type":"Point","coordinates":[-117.274602,32.841791]}},{"name":"Busca Corp","category_code":"games_video","number_of_employees":45,"total_money_raised":"$5M","description":"Busca Corp. Tijuana","address1":"Calle Brasil No. 8471","address2":"Col. Juarez","zip_code":"22040","city":"Tijuana, B.C.","state_code":null,"country_code":"MEX","location":{"type":"Point","coordinates":[-117.0274947,32.5217442]}},{"name":"Busca Corp","category_code":"games_video","number_of_employees":45,"total_money_raised":"$5M","description":"Busca Corp. Mexico City","address1":"Insurgentes Sur 348 Piso 9","address2":"Col. Roma","zip_code":"06700","city":"Mexico City","state_code":null,"country_code":"MEX","location":{"type":"Point","coordinates":[-99.1651395,19.4164309]}},{"name":"Tiny Speck","category_code":"games_video","number_of_employees":45,"total_money_raised":"$17.2M","description":"","address1":"163 Hastings St W","address2":"","zip_code":"BC V6B 1H5","city":"Vancouver","state_code":null,"country_code":"CAN","location":{"type":"Point","coordinates":[-123.109217,49.2824551]}},{"name":"Apaja","category_code":"games_video","number_of_employees":44,"total_money_raised":"\u20ac1.75M","description":"Apaja HQ","address1":"Mikonkatu 19","address2":"","zip_code":"00100","city":"Helsinki","state_code":null,"country_code":"FIN","location":{"type":"Point","coordinates":[24.945167,60.171821]}},{"name":"Kyte","category_code":"games_video","number_of_employees":40,"total_money_raised":"$23.4M","description":null,"address1":"442 Post Street","address2":"10th Floor","zip_code":"94102","city":"San Francisco","state_code":"CA","country_code":"USA","location":{"type":"Point","coordinates":[-122.409173,37.788482]}},{"name":"Owlient","category_code":"games_video","number_of_employees":40,"total_money_raised":"\u20ac3M","description":"Main Office","address1":"26-28 rue de Chamb\u00c3\u00a9ry","address2":"","zip_code":"75015","city":"Paris","state_code":null,"country_code":"FRA","location":{"type":"Point","coordinates":[2.3032201,48.8308091]}},{"name":"Yoostar","category_code":"games_video","number_of_employees":40,"total_money_raised":"$0","description":"Main Office","address1":"","address2":"","zip_code":"","city":"New York","state_code":"NY","country_code":"USA","location":{"type":"Point","coordinates":[-73.986951,40.756054]}},{"name":"Yoostar","category_code":"games_video","number_of_employees":40,"total_money_raised":"$0","description":"","address1":"","address2":"","zip_code":"","city":"Los Angeles","state_code":"CA","country_code":"USA","location":{"type":"Point","coordinates":[-118.243425,34.052187]}},{"name":"Yugma","category_code":"games_video","number_of_employees":38,"total_money_raised":"$0","description":"YSL Holdings (HQ)","address1":"PO Box 46573","address2":"","zip_code":"55344","city":"Eden Prairie","state_code":"MN","country_code":"USA","location":{"type":"Point","coordinates":[-93.4094629,44.865243]}},{"name":"Stickam","category_code":"games_video","number_of_employees":35,"total_money_raised":"$0","description":"","address1":"1975 pads rd","address2":"Suite 3000","zip_code":"90071","city":"Los Angeles","state_code":"CA","country_code":"USA","location":{"type":"Point","coordinates":[-118.254558,34.051409]}},{"name":"Jinni","category_code":"games_video","number_of_employees":35,"total_money_raised":"$8.1M","description":"","address1":"","address2":"","zip_code":"","city":"Tel Aviv","state_code":null,"country_code":"ISR","location":{"type":"Point","coordinates":[34.7595,32.0554]}},{"name":"Sometrics","category_code":"games_video","number_of_employees":35,"total_money_raised":"$5.55M","description":"","address1":"","address2":"","zip_code":"90245","city":"El Segundo","state_code":"CA","country_code":"USA","location":{"type":"Point","coordinates":[-118.251343,34.048857]}},{"name":"Openfilm","category_code":"games_video","number_of_employees":35,"total_money_raised":"$0","description":"Headquarters","address1":"1450 S Miami Ave","address2":"","zip_code":"33130","city":"Miami","state_code":"FL","country_code":"USA","location":{"type":"Point","coordinates":[-80.166155,25.887462]}},{"name":"FlowPlay","category_code":"games_video","number_of_employees":30,"total_money_raised":"$3.97M","description":"","address1":"114 Alaskan Way South","address2":"Ste. 100","zip_code":"98104","city":"Seattle","state_code":"WA","country_code":"USA","location":{"type":"Point","coordinates":[-122.335943,47.6015315]}},{"name":"Scrabulous","category_code":"games_video","number_of_employees":30,"total_money_raised":"$0","description":null,"address1":null,"address2":null,"zip_code":null,"city":"Kolkata","state_code":null,"country_code":"IND","location":{"type":"Point","coordinates":[88.363895,22.572646]}},{"name":"2threads","category_code":"games_video","number_of_employees":30,"total_money_raised":"$300k","description":null,"address1":"suite 5, 13-29 nichols st","address2":"surry hills","zip_code":"2010","city":"sydney","state_code":null,"country_code":"AUS","location":{"type":"Point","coordinates":[151.216427,-33.884685]}},{"name":"Cellufun","category_code":"games_video","number_of_employees":30,"total_money_raised":"$5.23M","description":"Worldwide HQ","address1":"33 West 19th Street","address2":"Suite 329","zip_code":"10011","city":"New York","state_code":"NY","country_code":"USA","location":{"type":"Point","coordinates":[-73.9930489,40.73993]}},{"name":"eRepublik","category_code":"games_video","number_of_employees":30,"total_money_raised":"\u20ac2.75M","description":"Office","address1":"Almagro 22","address2":"","zip_code":"28010","city":"Madrid","state_code":null,"country_code":"ESP","location":{"type":"Point","coordinates":[-3.6952896,40.43094]}},{"name":"PlayerAuctions","category_code":"games_video","number_of_employees":30,"total_money_raised":"$0","description":"Headquarters","address1":"","address2":"","zip_code":"","city":"Los Angeles","state_code":"CA","country_code":"USA","location":{"type":"Point","coordinates":[-118.243425,34.052187]}},{"name":"The Escapist","category_code":"games_video","number_of_employees":30,"total_money_raised":"$0","description":"Durham Office","address1":"2530 Meridian Parkway","address2":"2nd Floor","zip_code":"27713","city":"Durham","state_code":"NC","country_code":"USA","location":{"type":"Point","coordinates":[-78.900103,35.911733]}},{"name":"FacebookLicious!","category_code":"games_video","number_of_employees":30,"total_money_raised":"$0","description":"Facebooklicious Office.","address1":"42 Paisley Street,","address2":"","zip_code":"19701","city":"Bear","state_code":"DE","country_code":"USA","location":{"type":"Point","coordinates":[-75.696706,39.612223]}},{"name":"Mytopia","category_code":"games_video","number_of_employees":29,"total_money_raised":"$3.5M","description":"","address1":"","address2":"","zip_code":"94301","city":"Palo Alto","state_code":"CA","country_code":"USA","location":{"type":"Point","coordinates":[-118.489681,34.007967]}},{"name":"iLike","category_code":"games_video","number_of_employees":28,"total_money_raised":"$16.5M","description":null,"address1":"1605 Boylston Ave, Suite 202","address2":"","zip_code":"98122","city":"Seattle","state_code":"WA","country_code":"USA","location":{"type":"Point","coordinates":[-122.323408,47.615313]}},{"name":"Citizen Sports","category_code":"games_video","number_of_employees":27,"total_money_raised":"$10M","description":"","address1":"525 Brannan St","address2":"","zip_code":"94107","city":"San Francisco","state_code":"CA","country_code":"USA","location":{"type":"Point","coordinates":[-122.397044,37.777513]}},{"name":"Yaika","category_code":"games_video","number_of_employees":26,"total_money_raised":"$0","description":"Tallinn Office","address1":"Fr.R. Kreutzwaldi 4","address2":"","zip_code":"10120","city":"Tallinn","state_code":null,"country_code":"EST","location":{"type":"Point","coordinates":[24.768664,59.437214]}},{"name":"Preview Networks","category_code":"games_video","number_of_employees":26,"total_money_raised":"$4M","description":"European Headquarters","address1":"Njalsgade 21F","address2":"","zip_code":"2300","city":"Copenhagen","state_code":null,"country_code":"DNK","location":{"type":"Point","coordinates":[12.5800751,55.6659813]}},{"name":"Aniboom","category_code":"games_video","number_of_employees":25,"total_money_raised":"$14.5M","description":null,"address1":null,"address2":null,"zip_code":null,"city":null,"state_code":null,"country_code":"ISR","location":{"type":"Point","coordinates":[34.851612,31.046051]}},{"name":"MocoSpace","category_code":"games_video","number_of_employees":25,"total_money_raised":"$10.5M","description":"","address1":"","address2":"","zip_code":"02111","city":"Boston","state_code":"MA","country_code":"USA","location":{"type":"Point","coordinates":[-71.058768,42.350274]}},{"name":"Rupture","category_code":"games_video","number_of_employees":25,"total_money_raised":"$3M","description":"Headquarters","address1":"400 2nd Street","address2":"Suite 350","zip_code":"94107","city":"San Francisco","state_code":"CA","country_code":"USA","location":{"type":"Point","coordinates":[-122.395234,37.783898]}},{"name":"Fliqz","category_code":"games_video","number_of_employees":25,"total_money_raised":"$12.2M","description":"","address1":"1266 66th St.","address2":"#10","zip_code":"94608","city":"Emeryville","state_code":"CA","country_code":"USA","location":{"type":"Point","coordinates":[-122.289498,37.848641]}},{"name":"BASH Gaming","category_code":"games_video","number_of_employees":25,"total_money_raised":"$1M","description":"US Office","address1":"","address2":"","zip_code":"94555","city":"Fremont","state_code":"CA","country_code":"USA","location":{"type":"Point","coordinates":[-122.0780632,37.5561712]}},{"name":"BASH Gaming","category_code":"games_video","number_of_employees":25,"total_money_raised":"$1M","description":"India Office","address1":"","address2":"","zip_code":"","city":"Bangalore","state_code":null,"country_code":"IND","location":{"type":"Point","coordinates":[77.594376,12.971606]}},{"name":"Saavn","category_code":"games_video","number_of_employees":25,"total_money_raised":"$6M","description":"Corporate Headquarters","address1":"","address2":"","zip_code":"10016","city":"New York","state_code":"NY","country_code":"USA","location":{"type":"Point","coordinates":[-73.98618,40.743877]}},{"name":"GameGround","category_code":"games_video","number_of_employees":25,"total_money_raised":"$11.4M","description":"HQ","address1":"","address2":"","zip_code":"","city":"New York","state_code":"NY","country_code":"USA","location":{"type":"Point","coordinates":[-73.986951,40.756054]}},{"name":"Pando Networks","category_code":"games_video","number_of_employees":23,"total_money_raised":"$11M","description":null,"address1":"520 Broadway","address2":"10th Floor","zip_code":"10012","city":"New York","state_code":"NY","country_code":"USA","location":{"type":"Point","coordinates":[-73.99873,40.722655]}},{"name":"Serious Business","category_code":"games_video","number_of_employees":22,"total_money_raised":"$4M","description":"","address1":"580 Market Street","address2":"#600","zip_code":"94104","city":"San Francisco","state_code":"CA","country_code":"USA","location":{"type":"Point","coordinates":[-122.4013624,37.7893215]}},{"name":"Tweegee","category_code":"games_video","number_of_employees":22,"total_money_raised":"$3M","description":"Tweegee Develpoment","address1":"B.S.R 1","address2":"Ben Gurion 2","zip_code":"","city":"Ramat Gan","state_code":null,"country_code":"ISR","location":{"type":"Point","coordinates":[34.8003705,32.037363]}},{"name":"Vuze","category_code":"games_video","number_of_employees":20,"total_money_raised":"$34M","description":"Headquarters","address1":"4 W. 4th Ave","address2":"","zip_code":"94402","city":"San Mateo","state_code":"CA","country_code":"USA","location":{"type":"Point","coordinates":[-122.2262606,37.4858654]}},{"name":"BuddyTV","category_code":"games_video","number_of_employees":20,"total_money_raised":"$10.6M","description":"Seattle Headquarters","address1":"190 Queen Anne Ave Suite 280","address2":"","zip_code":"98109","city":"Seattle","state_code":"WA","country_code":"USA","location":{"type":"Point","coordinates":[-122.356756,47.61968]}},{"name":"Kongregate","category_code":"games_video","number_of_employees":20,"total_money_raised":"$19M","description":"","address1":"2 Shaw Alley","address2":"4th Floor","zip_code":"94105","city":"San Francisco","state_code":"CA","country_code":"USA","location":{"type":"Point","coordinates":[-122.401245,37.786942]}},{"name":"MUBI","category_code":"games_video","number_of_employees":20,"total_money_raised":"$8.25M","description":"","address1":"668 High Street","address2":"","zip_code":"94301","city":"Palo Alto","state_code":"CA","country_code":"USA","location":{"type":"Point","coordinates":[-122.161025,37.44236]}},{"name":"Anistock","category_code":"games_video","number_of_employees":20,"total_money_raised":"$0","description":null,"address1":"","address2":"","zip_code":"92011","city":"Carlsbad","state_code":"CA","country_code":"USA","location":{"type":"Point","coordinates":[-117.298979,33.108559]}},{"name":"Panfu","category_code":"games_video","number_of_employees":20,"total_money_raised":"$0","description":"Young Internet GmbH","address1":"Winsstra\u00c3\u0178e 62\/63","address2":"","zip_code":"10405","city":"Berlin","state_code":null,"country_code":"DEU","location":{"type":"Point","coordinates":[13.4120986,52.5283111]}},{"name":"Mybandstock","category_code":"games_video","number_of_employees":19,"total_money_raised":"$0","description":"Mybandstock.com","address1":"3475 Ben Lomond Place","address2":"","zip_code":"90027","city":"Los Angeles","state_code":"CA","country_code":"USA","location":{"type":"Point","coordinates":[-83.7420579,42.2802675]}},{"name":"Titan Gaming","category_code":"games_video","number_of_employees":18,"total_money_raised":"$1M","description":"Santa Monica Office","address1":"1351 4th Street, 4th floor","address2":"","zip_code":"90401","city":"Santa Monica","state_code":"CA","country_code":"USA","location":{"type":"Point","coordinates":[-113.515769,53.544711]}},{"name":"ScanDigital","category_code":"games_video","number_of_employees":17,"total_money_raised":"$350k","description":"Torrance Office","address1":"680 Knox Street","address2":"","zip_code":"90502","city":"Torrance","state_code":"CA","country_code":"USA","location":{"type":"Point","coordinates":[-118.41747,33.918151]}},{"name":"CareerTours","category_code":"games_video","number_of_employees":17,"total_money_raised":"$0","description":"Sky Song","address1":"1475 N Scottsdale","address2":"Ste 200","zip_code":"85257","city":"Scottsdale","state_code":"AZ","country_code":"USA","location":{"type":"Point","coordinates":[-111.926112,33.465063]}},{"name":"Backstage Technologies","category_code":"games_video","number_of_employees":17,"total_money_raised":"$0","description":"HQ","address1":"626A Fisgard Street","address2":"","zip_code":"V8W 1R6","city":"Victoria, BC","state_code":null,"country_code":"CAN","location":{"type":"Point","coordinates":[-123.3558507,48.429856]}},{"name":"Clipta","category_code":"games_video","number_of_employees":16,"total_money_raised":"$0","description":"Corporate Headquarters","address1":"250 North Wolfe Road","address2":"","zip_code":"94085","city":"Sunnyvale","state_code":"CA","country_code":"USA","location":{"type":"Point","coordinates":[-122.0124404,37.3793718]}},{"name":"Mobilenobo","category_code":"games_video","number_of_employees":16,"total_money_raised":"$0","description":"","address1":"Strovolou 77 Office 204","address2":"","zip_code":"67312","city":"Nicosia","state_code":null,"country_code":"CYP","location":{"type":"Point","coordinates":[33.3250705,35.1286571]}},{"name":"Spoonfed","category_code":"games_video","number_of_employees":16,"total_money_raised":"\u00a3477k","description":"Spoonfed LDN","address1":"Studio 16","address2":"14 Southgate Road","zip_code":"N1 3LY","city":"London","state_code":null,"country_code":"GBR","location":{"type":"Point","coordinates":[-1.2186724,51.7577453]}},{"name":"AdaptiveBlue","category_code":"games_video","number_of_employees":15,"total_money_raised":"$24M","description":"","address1":"131 Varick St","address2":"","zip_code":"10013","city":"NYC","state_code":"NY","country_code":"USA","location":{"type":"Point","coordinates":[-74.3372,40.801358]}},{"name":"SpiralFrog","category_code":"games_video","number_of_employees":15,"total_money_raised":"$45M","description":null,"address1":"95 Morton Street","address2":"Ground Floor","zip_code":"10014","city":"New York","state_code":"NY","country_code":"USA","location":{"type":"Point","coordinates":[-95.712891,37.09024]}},{"name":"Veodia","category_code":"games_video","number_of_employees":15,"total_money_raised":"$8.3M","description":"HQ","address1":"1825 S Grant Street","address2":"Suite 500","zip_code":"94402","city":"San Mateo","state_code":"CA","country_code":"USA","location":{"type":"Point","coordinates":[-122.300246,37.553743]}},{"name":"Pikum","category_code":"games_video","number_of_employees":15,"total_money_raised":"$5.92M","description":null,"address1":"7 Chalcot Road","address2":"","zip_code":"Nw1 8lh","city":"London","state_code":null,"country_code":"GBR","location":{"type":"Point","coordinates":[-0.152998,51.539778]}},{"name":"Medioh!","category_code":"games_video","number_of_employees":15,"total_money_raised":"$0","description":null,"address1":"1690 30th Street","address2":"","zip_code":"80301","city":"Boulder","state_code":"CO","country_code":"USA","location":{"type":"Point","coordinates":[-105.253601,40.016582]}},{"name":"LyricFind","category_code":"games_video","number_of_employees":15,"total_money_raised":"$0","description":"LyricFind","address1":"40 Eglinton Ave. East","address2":"Suite 400","zip_code":"M4P 3A2","city":"Toronto","state_code":null,"country_code":"CAN","location":{"type":"Point","coordinates":[-79.3995384,43.7123092]}},{"name":"GenArts","category_code":"games_video","number_of_employees":15,"total_money_raised":"$22.4M","description":"Corporate Headquarters","address1":"955 Massachusetts Ave","address2":"","zip_code":"02139","city":"Cambridge","state_code":"MA","country_code":"USA","location":{"type":"Point","coordinates":[-71.110276,42.369007]}},{"name":"Endavo Media and Communications","category_code":"games_video","number_of_employees":15,"total_money_raised":"$0","description":"Headquarters","address1":"6 West Druid Hills Drive NE","address2":"Suite 401","zip_code":"30329","city":"Atlanta","state_code":"GA","country_code":"USA","location":{"type":"Point","coordinates":[-84.3391231,33.8317964]}},{"name":"GotGame","category_code":"games_video","number_of_employees":15,"total_money_raised":"$1M","description":"GotGame HQ","address1":"1 Bluxome Place","address2":"Suite 204","zip_code":"94107","city":"San Francisco","state_code":"CA","country_code":"USA","location":{"type":"Point","coordinates":[-122.395785,37.77772]}},{"name":"Drum Channel","category_code":"games_video","number_of_employees":15,"total_money_raised":"$0","description":"","address1":"900 Del Norte Blvd","address2":"","zip_code":"93030","city":"Oxnard","state_code":"CA","country_code":"USA","location":{"type":"Point","coordinates":[-119.12636,34.210099]}},{"name":"Vae Victis","category_code":"games_video","number_of_employees":15,"total_money_raised":"$0","description":"Italy Office","address1":"via Emilia Ponente, 1667","address2":"","zip_code":"47023","city":"Cesena","state_code":null,"country_code":"ITA","location":{"type":"Point","coordinates":[12.2091265,44.1480034]}},{"name":"MeFeedia","category_code":"games_video","number_of_employees":13,"total_money_raised":"$250k","description":null,"address1":"","address2":"","zip_code":"","city":"Burbank","state_code":"CA","country_code":"USA","location":{"type":"Point","coordinates":[-118.335292,34.155869]}},{"name":"scoyo","category_code":"games_video","number_of_employees":13,"total_money_raised":"$0","description":"scoyo GmbH","address1":"Gro\u00c3\u0178er Burstah 50-52","address2":"","zip_code":"20457","city":"Hamburg","state_code":null,"country_code":"DEU","location":{"type":"Point","coordinates":[9.9490139,53.5622698]}},{"name":"Metaplace","category_code":"games_video","number_of_employees":12,"total_money_raised":"$9.4M","description":"hi","address1":"415 S Cedros Ave","address2":"Suite 240","zip_code":"90275","city":"Solana Beach","state_code":"CA","country_code":"USA","location":{"type":"Point","coordinates":[-117.077311,33.020832]}},{"name":"WonderHowTo","category_code":"games_video","number_of_employees":12,"total_money_raised":"$0","description":null,"address1":"1832 Franklin Street","address2":"","zip_code":"90404","city":"Santa Monica","state_code":"CA","country_code":"USA","location":{"type":"Point","coordinates":[-118.461884,34.031764]}},{"name":"Akoha","category_code":"games_video","number_of_employees":12,"total_money_raised":"$1.9M","description":null,"address1":"3981 boul. St. Laurent","address2":"Mezz 1","zip_code":"H2W 1Y5","city":"Montreal","state_code":null,"country_code":"CAN","location":{"type":"Point","coordinates":[-73.578477,45.516545]}},{"name":"ScribeStorm","category_code":"games_video","number_of_employees":12,"total_money_raised":"$225k","description":null,"address1":"51 East Broadway Ave.","address2":"suite 200","zip_code":"52556","city":"Fairfield","state_code":"IA","country_code":"USA","location":{"type":"Point","coordinates":[-91.962789,41.007625]}},{"name":"GEN247","category_code":"games_video","number_of_employees":12,"total_money_raised":"$0","description":"GEN247 LLC","address1":"Bayard Studios","address2":"98 Bayard St","zip_code":"11222","city":"Brooklyn","state_code":"NY","country_code":"USA","location":{"type":"Point","coordinates":[-73.9447994,40.727434]}},{"name":"Tubefilter","category_code":"games_video","number_of_employees":12,"total_money_raised":"$0","description":"Headquarters","address1":"5405 Wilshire Blvd","address2":"Suite 270","zip_code":"90036","city":"Los Angeles","state_code":"CA","country_code":"USA","location":{"type":"Point","coordinates":[-118.350486,34.070436]}},{"name":"Fusion Creative Studios","category_code":"games_video","number_of_employees":12,"total_money_raised":"$0","description":"","address1":"5-B Tipping Drive","address2":"Suite 3 Second Floor","zip_code":"06405","city":"Branford","state_code":"CT","country_code":"USA","location":{"type":"Point","coordinates":[-72.768842,41.303696]}},{"name":"DigitalDeejay","category_code":"games_video","number_of_employees":12,"total_money_raised":"$0","description":"World Headquarter","address1":"19 MONTEE DE L EGLISE","address2":"","zip_code":"69300","city":"CALUIRE ET CUIRE","state_code":null,"country_code":"FRA","location":{"type":"Point","coordinates":[4.830048,45.792717]}},{"name":"Citizenside","category_code":"games_video","number_of_employees":12,"total_money_raised":"\u20ac1.04M","description":"Paris Bureau","address1":"Level 5","address2":"52 boulevard S\u00e9bastopol","zip_code":"75003","city":"Paris","state_code":null,"country_code":"FRA","location":{"type":"Point","coordinates":[2.3179601,48.8926988]}},{"name":"Compete-At","category_code":"games_video","number_of_employees":12,"total_money_raised":"$0","description":"Headquarters & Sales","address1":"4905 Del Ray Ave","address2":"Suite 507","zip_code":"20814","city":"Bethesda","state_code":"MD","country_code":"USA","location":{"type":"Point","coordinates":[-77.0989247,38.9897861]}},{"name":"Compete-At","category_code":"games_video","number_of_employees":12,"total_money_raised":"$0","description":"Sales Office","address1":"6660 Delmonico Dr.","address2":"Suite D-255","zip_code":"80919","city":"Colorado Springs","state_code":"CO","country_code":"USA","location":{"type":"Point","coordinates":[-104.830775,38.927596]}},{"name":"MixMatchMusic","category_code":"games_video","number_of_employees":12,"total_money_raised":"$0","description":"PO Box","address1":"1325 Howard Avenue","address2":"#923","zip_code":"94010","city":"Burlingame","state_code":"CA","country_code":"USA","location":{"type":"Point","coordinates":[-122.3462137,37.5768841]}},{"name":"Redux","category_code":"games_video","number_of_employees":11,"total_money_raised":"$8.11M","description":"","address1":"2054 University Avenue","address2":"Floor #2","zip_code":"94704","city":"Berkeley","state_code":"CA","country_code":"USA","location":{"type":"Point","coordinates":[-122.269494,37.87168]}},{"name":"IBTgames","category_code":"games_video","number_of_employees":11,"total_money_raised":"$25k","description":"HQ","address1":"169, North Gulshan Avenue,","address2":"Gulshan-2","zip_code":"1212","city":"Dhaka","state_code":null,"country_code":"BGD","location":{"type":"Point","coordinates":[90.401432,23.797333]}},{"name":"IBTgames","category_code":"games_video","number_of_employees":11,"total_money_raised":"$25k","description":"Satellite Office","address1":"","address2":"","zip_code":"01603","city":"Worcester","state_code":"MA","country_code":"USA","location":{"type":"Point","coordinates":[-71.839344,42.23988]}},{"name":"TubeSpree","category_code":"games_video","number_of_employees":11,"total_money_raised":"$0","description":"Main Office","address1":"601 Van Ness Ave","address2":"Suite E-112","zip_code":"94102-3200","city":"San Francisco","state_code":"CA","country_code":"USA","location":{"type":"Point","coordinates":[-122.421406,37.781386]}},{"name":"Recombinant","category_code":"games_video","number_of_employees":10,"total_money_raised":"$0","description":null,"address1":"","address2":"","zip_code":"","city":"Santa Cruz","state_code":"CA","country_code":"USA","location":{"type":"Point","coordinates":[-122.03336,36.977905]}},{"name":"WebRidesTV","category_code":"games_video","number_of_employees":10,"total_money_raised":"$0","description":null,"address1":"8500 Steller Dr. Suite 7","address2":"","zip_code":"90232","city":"Culver City","state_code":"CA","country_code":"USA","location":{"type":"Point","coordinates":[-118.380437,34.024453]}},{"name":"AudioMicro","category_code":"games_video","number_of_employees":10,"total_money_raised":"$1.25M","description":"","address1":"13351-D Riverside Dr #219","address2":"","zip_code":"91423","city":"Sherman Oaks","state_code":"CA","country_code":"USA","location":{"type":"Point","coordinates":[-118.422495,34.153588]}},{"name":"Vivity Labs","category_code":"games_video","number_of_employees":10,"total_money_raised":"$1M","description":"","address1":"21 Water Street","address2":"","zip_code":"V6B 1A1","city":"Vancouver","state_code":null,"country_code":"CAN","location":{"type":"Point","coordinates":[-123.108456,49.282249]}},{"name":"Podbean LLC","category_code":"games_video","number_of_employees":10,"total_money_raised":"$0","description":null,"address1":"501 Silverside Road, Suite 105","address2":"","zip_code":"19809","city":"Wilmington","state_code":"DE","country_code":"USA","location":{"type":"Point","coordinates":[-75.485407,39.786948]}},{"name":"Pixelmatic","category_code":"games_video","number_of_employees":10,"total_money_raised":"$0","description":"Vancouver","address1":"","address2":"","zip_code":"","city":"Vancouver","state_code":null,"country_code":"CAN","location":{"type":"Point","coordinates":[-123.138565,49.263588]}},{"name":"My Damn Channel","category_code":"games_video","number_of_employees":10,"total_money_raised":"$8.66M","description":"My Damn Channel, Inc.","address1":"202 W. 40th St.","address2":"16th Floor","zip_code":"10018","city":"New York","state_code":"NY","country_code":"USA","location":{"type":"Point","coordinates":[-73.988543,40.754762]}},{"name":"My Damn Channel","category_code":"games_video","number_of_employees":10,"total_money_raised":"$8.66M","description":"Los Angeles office","address1":"2121 Rosecrans Ave.","address2":"Suite 4310","zip_code":"90245","city":"El Segundo","state_code":"CA","country_code":"USA","location":{"type":"Point","coordinates":[-118.3872018,33.9019543]}},{"name":"YOOWALK","category_code":"games_video","number_of_employees":10,"total_money_raised":"$0","description":"","address1":"28 rue Fr\u00c3\u00a9micourt","address2":"","zip_code":"75015","city":"Paris","state_code":null,"country_code":"FRA","location":{"type":"Point","coordinates":[2.2992348,48.8475487]}},{"name":"Shattered Reality Interactive","category_code":"games_video","number_of_employees":10,"total_money_raised":"$1.1M","description":"Main Office","address1":"490 2nd Street","address2":"Suite 100","zip_code":"94107","city":"San Francisco","state_code":"CA","country_code":"USA","location":{"type":"Point","coordinates":[-122.394067,37.783046]}},{"name":"Radio One Llama","category_code":"games_video","number_of_employees":10,"total_money_raised":"$1M","description":"","address1":"","address2":"","zip_code":"","city":"Champaign","state_code":"IL","country_code":"USA","location":{"type":"Point","coordinates":[-88.271074,40.1128]}},{"name":"ReplayGamez","category_code":"games_video","number_of_employees":10,"total_money_raised":"$0","description":"US Office","address1":"","address2":"","zip_code":"","city":"Flowermound","state_code":"TX","country_code":"USA","location":{"type":"Point","coordinates":[-95.693347,29.550027]}},{"name":"Karo Internet","category_code":"games_video","number_of_employees":10,"total_money_raised":"\u20ac850k","description":"HQ","address1":"K\u00c3\u00b6lner str 89","address2":"","zip_code":"50859","city":"Cologne","state_code":null,"country_code":"DEU","location":{"type":"Point","coordinates":[6.842133,50.947112]}},{"name":"For Your Imagination","category_code":"games_video","number_of_employees":10,"total_money_raised":"$1.3M","description":"HQ","address1":"22 West 27th Street","address2":"6th Floor","zip_code":"10001","city":"New York","state_code":"NY","country_code":"USA","location":{"type":"Point","coordinates":[-73.989698,40.744594]}},{"name":"SonicLiving","category_code":"games_video","number_of_employees":10,"total_money_raised":"$0","description":"SonicLiving HQ","address1":"1211 Folsom St","address2":"Fourth Floor","zip_code":"94103","city":"San Francisco","state_code":"CA","country_code":"USA","location":{"type":"Point","coordinates":[-122.290897,37.8448035]}},{"name":"iViioo","category_code":"games_video","number_of_employees":10,"total_money_raised":"$0","description":"USA Office","address1":"","address2":"","zip_code":"94539","city":"","state_code":"CA","country_code":"USA","location":{"type":"Point","coordinates":[-121.9131761,37.5340363]}},{"name":"iViioo","category_code":"games_video","number_of_employees":10,"total_money_raised":"$0","description":"Europe Office","address1":"","address2":"","zip_code":"","city":"Stockholm","state_code":null,"country_code":"SWE","location":{"type":"Point","coordinates":[18.0644881,59.3327881]}},{"name":"Filmed Media","category_code":"games_video","number_of_employees":10,"total_money_raised":"$0","description":"Head Office","address1":"58 Salusbury Road","address2":"Queens Park","zip_code":"NW6 6NP","city":"London","state_code":null,"country_code":"GBR","location":{"type":"Point","coordinates":[-0.2055081,51.5359008]}},{"name":"SAMP2","category_code":"games_video","number_of_employees":10,"total_money_raised":"$0","description":"Main office","address1":"van Goijenlaan 45","address2":"","zip_code":"3723GN","city":"Bilthoven","state_code":null,"country_code":"NLD","location":{"type":"Point","coordinates":[5.2092075,52.1424695]}},{"name":"LoomTV","category_code":"games_video","number_of_employees":10,"total_money_raised":"$0","description":"","address1":"Michaelstr. 6","address2":"","zip_code":"41460","city":"Neuss","state_code":null,"country_code":"DEU","location":{"type":"Point","coordinates":[6.6906699,51.1977634]}},{"name":"Wisevid","category_code":"games_video","number_of_employees":10,"total_money_raised":"$0","description":"","address1":"","address2":"","zip_code":"","city":"Toronto","state_code":null,"country_code":"CAN","location":{"type":"Point","coordinates":[-79.386755,43.670233]}},{"name":"PBMCube","category_code":"games_video","number_of_employees":10,"total_money_raised":"$0","description":"Phoenix HQ","address1":"8111 N 19th Ave","address2":"Suite 1042","zip_code":"85021","city":"Phoenix","state_code":"AZ","country_code":"USA","location":{"type":"Point","coordinates":[-112.098592,33.554943]}},{"name":"Say Design","category_code":"games_video","number_of_employees":10,"total_money_raised":"$0","description":"Main Office","address1":"130 Vantis","address2":"Suite 135","zip_code":"92656","city":"Aliso Viejo","state_code":"CA","country_code":"USA","location":{"type":"Point","coordinates":[-117.7293383,33.579204]}},{"name":"ToonUps","category_code":"games_video","number_of_employees":10,"total_money_raised":"$0","description":"Corporate","address1":"11 West Avenue","address2":"Suite 220","zip_code":"19087","city":"Wayne","state_code":"PA","country_code":"USA","location":{"type":"Point","coordinates":[-75.39342,40.046431]}},{"name":"BIT TV","category_code":"games_video","number_of_employees":10,"total_money_raised":"$0","description":"Main Office","address1":"4701 se 24th st.","address2":"bld 3  sut E","zip_code":"97202","city":"Portland","state_code":"OR","country_code":"USA","location":{"type":"Point","coordinates":[-122.642156,45.488419]}},{"name":"ekidnaworld","category_code":"games_video","number_of_employees":10,"total_money_raised":"$0","description":"","address1":"Fortitude Valley","address2":"Fortitude Valley","zip_code":"4006","city":"Queensland","state_code":null,"country_code":"AUS","location":{"type":"Point","coordinates":[153.033686,-27.4574861]}}]